{
"type": "FeatureCollection",
"name": "EnfermRespiratPorClues2015_2020",
"crs": { "type": "name", "properties": { "name": "urn:ogc:def:crs:OGC:1.3:CRS84" } },
"features": [
{ "type": "Feature", "properties": { "fid": 1, "field_1": 0, "CLUES": "DFSSA000053", "INGRE": 1917, "NombreClue": "14-H.P. Azcapotzalco", "DomUnidad": "AVENIDA AZCAPOTZALCO 731 COL. AZCAPOTZALCO", "EDO": "CIUDAD DE MÉXICO", "Full Address": "AVENIDA AZCAPOTZALCO 731 COL. AZCAPOTZALCO CIUDAD DE MÉXICO", "Latitude": 19.4844155, "Longitude": -99.1854393 }, "geometry": { "type": "Point", "coordinates": [ -99.1854393, 19.4844155 ] } },
{ "type": "Feature", "properties": { "fid": 2, "field_1": 1, "CLUES": "DFSSA000065", "INGRE": 1, "NombreClue": "29-H.M.I. Dr. Nicolás M. Cedillo", "DomUnidad": "GUSTAVO J. ESQUINA VÍCTOR HERNÁNDEZ COVARRUBIAS SIN NÚMERO , COLONIA UNIDAD FRANCISCO VILLA", "EDO": "CIUDAD DE MÉXICO", "Full Address": "GUSTAVO J. ESQUINA VÍCTOR HERNÁNDEZ COVARRUBIAS SIN NÚMERO , COLONIA UNIDAD FRANCISCO VILLA CIUDAD DE MÉXICO", "Latitude": 19.4980031, "Longitude": -99.2032987 }, "geometry": { "type": "Point", "coordinates": [ -99.2032987, 19.4980031 ] } },
{ "type": "Feature", "properties": { "fid": 3, "field_1": 2, "CLUES": "DFSSA000350", "INGRE": 3553, "NombreClue": "15-H.P. Coyoacán", "DomUnidad": "MOCTEZUMA NO. EXT. 18 COLONIA DEL CARMEN COYOACÁN", "EDO": "CIUDAD DE MÉXICO", "Full Address": "MOCTEZUMA NO. EXT. 18 COLONIA DEL CARMEN COYOACÁN CIUDAD DE MÉXICO", "Latitude": 19.3458179, "Longitude": -99.1680652 }, "geometry": { "type": "Point", "coordinates": [ -99.1680652, 19.3458179 ] } },
{ "type": "Feature", "properties": { "fid": 4, "field_1": 3, "CLUES": "DFSSA000835", "INGRE": 2473, "NombreClue": "22-H.P. San Juan de Aragón", "DomUnidad": "AVENIDA 506 COLONIA SAN JUAN DE ARAGÓN 1A. SECCIÓN", "EDO": "CIUDAD DE MÉXICO", "Full Address": "AVENIDA 506 COLONIA SAN JUAN DE ARAGÓN 1A. SECCIÓN CIUDAD DE MÉXICO", "Latitude": 19.4556097, "Longitude": -99.0885213 }, "geometry": { "type": "Point", "coordinates": [ -99.0885213, 19.4556097 ] } },
{ "type": "Feature", "properties": { "fid": 5, "field_1": 4, "CLUES": "DFSSA000840", "INGRE": 2150, "NombreClue": "16-H.P. Villa", "DomUnidad": "AVENIDA CANTERA ESQUINA HIDALGO COLONIA ESTANZUELA", "EDO": "CIUDAD DE MÉXICO", "Full Address": "AVENIDA CANTERA ESQUINA HIDALGO COLONIA ESTANZUELA CIUDAD DE MÉXICO", "Latitude": 19.4876684, "Longitude": -99.1135159 }, "geometry": { "type": "Point", "coordinates": [ -99.1135159, 19.4876684 ] } },
{ "type": "Feature", "properties": { "fid": 6, "field_1": 5, "CLUES": "DFSSA000864", "INGRE": 475, "NombreClue": "10-H.G. Ticomán", "DomUnidad": "PLAN DE SAN LUIS COLONIA TICOMÁN", "EDO": "CIUDAD DE MÉXICO", "Full Address": "PLAN DE SAN LUIS COLONIA TICOMÁN CIUDAD DE MÉXICO", "Latitude": 19.5144757, "Longitude": -99.1383636 }, "geometry": { "type": "Point", "coordinates": [ -99.1383636, 19.5144757 ] } },
{ "type": "Feature", "properties": { "fid": 7, "field_1": 6, "CLUES": "DFSSA000876", "INGRE": 22, "NombreClue": "35-U.M.R.P.V. Norte", "DomUnidad": "JAIME NUNO 155 COLONIA CENTRO ESCOLAR", "EDO": "CIUDAD DE MÉXICO", "Full Address": "JAIME NUNO 155 COLONIA CENTRO ESCOLAR CIUDAD DE MÉXICO", "Latitude": 19.5435835, "Longitude": -99.1483068 }, "geometry": { "type": "Point", "coordinates": [ -99.1483068, 19.5435835 ] } },
{ "type": "Feature", "properties": { "fid": 8, "field_1": 7, "CLUES": "DFSSA000881", "INGRE": 933, "NombreClue": "05-H.G. Villa", "DomUnidad": "AVENIDA SAN JUAN DE ARAGÓN 285 COLONIA GRANJAS MODERNAS", "EDO": "CIUDAD DE MÉXICO", "Full Address": "AVENIDA SAN JUAN DE ARAGÓN 285 COLONIA GRANJAS MODERNAS CIUDAD DE MÉXICO", "Latitude": 19.4800545, "Longitude": -99.1032513 }, "geometry": { "type": "Point", "coordinates": [ -99.1032513, 19.4800545 ] } },
{ "type": "Feature", "properties": { "fid": 9, "field_1": 8, "CLUES": "DFSSA001296", "INGRE": 1791, "NombreClue": "18-H.P. Iztacalco", "DomUnidad": "AVENIDA COYUYA Y TERRAPLÉN DE RÍO FRÍO COLONIA LA CRUZ", "EDO": "CIUDAD DE MÉXICO", "Full Address": "AVENIDA COYUYA Y TERRAPLÉN DE RÍO FRÍO COLONIA LA CRUZ CIUDAD DE MÉXICO", "Latitude": 19.4032406, "Longitude": -99.1174152 }, "geometry": { "type": "Point", "coordinates": [ -99.1174152, 19.4032406 ] } },
{ "type": "Feature", "properties": { "fid": 10, "field_1": 9, "CLUES": "DFSSA001511", "INGRE": 2621, "NombreClue": "19-H.P. Iztapalapa", "DomUnidad": "CALZADA ERMITA IZTAPALAPA 780 COLONIA GRANJAS SAN ANTONIO", "EDO": "CIUDAD DE MÉXICO", "Full Address": "CALZADA ERMITA IZTAPALAPA 780 COLONIA GRANJAS SAN ANTONIO CIUDAD DE MÉXICO", "Latitude": 19.356703, "Longitude": -99.10765 }, "geometry": { "type": "Point", "coordinates": [ -99.10765, 19.356703 ] } },
{ "type": "Feature", "properties": { "fid": 11, "field_1": 10, "CLUES": "DFSSA001523", "INGRE": 31, "NombreClue": "33-U.M. Penitenciaria del D.F.", "DomUnidad": "AVENIDA ERMITA IZTAPALAPA COLONIA SANTA MARTHA ACATITLA", "EDO": "CIUDAD DE MÉXICO", "Full Address": "AVENIDA ERMITA IZTAPALAPA COLONIA SANTA MARTHA ACATITLA CIUDAD DE MÉXICO", "Latitude": 19.3562035, "Longitude": -99.0059828 }, "geometry": { "type": "Point", "coordinates": [ -99.0059828, 19.3562035 ] } },
{ "type": "Feature", "properties": { "fid": 12, "field_1": 11, "CLUES": "DFSSA001535", "INGRE": 3, "NombreClue": "34-U.M.R.P.V. Oriente", "DomUnidad": "REFORMA 100 COLONIA LOMAS DE SAN LORENZO", "EDO": "CIUDAD DE MÉXICO", "Full Address": "REFORMA 100 COLONIA LOMAS DE SAN LORENZO CIUDAD DE MÉXICO", "Latitude": 19.3216059, "Longitude": -99.0683772 }, "geometry": { "type": "Point", "coordinates": [ -99.0683772, 19.3216059 ] } },
{ "type": "Feature", "properties": { "fid": 13, "field_1": 12, "CLUES": "DFSSA001540", "INGRE": 1153, "NombreClue": "08-H.G. Iztapalapa", "DomUnidad": "AVENIDA ERMITA IZTAPALAPA 3018 COLONIA CITLALI", "EDO": "CIUDAD DE MÉXICO", "Full Address": "AVENIDA ERMITA IZTAPALAPA 3018 COLONIA CITLALI CIUDAD DE MÉXICO", "Latitude": 19.3437793, "Longitude": -99.0270315 }, "geometry": { "type": "Point", "coordinates": [ -99.0270315, 19.3437793 ] } },
{ "type": "Feature", "properties": { "fid": 14, "field_1": 13, "CLUES": "DFSSA002066", "INGRE": 416, "NombreClue": "09-H.G. Milpa Alta", "DomUnidad": "BOULEVARD NUEVO LEON 386 COLONIA VILLA MILPA ALTA", "EDO": "CIUDAD DE MÉXICO", "Full Address": "BOULEVARD NUEVO LEON 386 COLONIA VILLA MILPA ALTA CIUDAD DE MÉXICO", "Latitude": 19.1964203, "Longitude": -99.0195568 }, "geometry": { "type": "Point", "coordinates": [ -99.0195568, 19.1964203 ] } },
{ "type": "Feature", "properties": { "fid": 15, "field_1": 14, "CLUES": "DFSSA002491", "INGRE": 1, "NombreClue": "28-H.M.I. Tláhuac", "DomUnidad": "AVENIDA TLÁHUAC CHALCO 231 COLONIA LA HABANA", "EDO": "CIUDAD DE MÉXICO", "Full Address": "AVENIDA TLÁHUAC CHALCO 231 COLONIA LA HABANA CIUDAD DE MÉXICO", "Latitude": 19.2651295, "Longitude": -98.997958 }, "geometry": { "type": "Point", "coordinates": [ -98.997958, 19.2651295 ] } },
{ "type": "Feature", "properties": { "fid": 16, "field_1": 15, "CLUES": "DFSSA002672", "INGRE": 160, "NombreClue": "32-H.G.Torre Médica Tepepan", "DomUnidad": "AVENIDA LA JOYA COLONIA VALLE ESCONDIDO C.P. 14600", "EDO": "CIUDAD DE MÉXICO", "Full Address": "AVENIDA LA JOYA COLONIA VALLE ESCONDIDO C.P. 14600 CIUDAD DE MÉXICO", "Latitude": 19.2773635, "Longitude": -99.1425147 }, "geometry": { "type": "Point", "coordinates": [ -99.1425147, 19.2773635 ] } },
{ "type": "Feature", "properties": { "fid": 17, "field_1": 16, "CLUES": "DFSSA002993", "INGRE": 1351, "NombreClue": "31-H.M.P. Xochimilco", "DomUnidad": "PROLONGACIÓN 16 DE SEPTIEMBRE Y CALZADA NATIVITAS COL. BARRIO XALTOCÁN C.P. 16090", "EDO": "CIUDAD DE MÉXICO", "Full Address": "PROLONGACIÓN 16 DE SEPTIEMBRE Y CALZADA NATIVITAS COL. BARRIO XALTOCÁN C.P. 16090 CIUDAD DE MÉXICO", "Latitude": 19.2555658, "Longitude": -99.1053752 }, "geometry": { "type": "Point", "coordinates": [ -99.1053752, 19.2555658 ] } },
{ "type": "Feature", "properties": { "fid": 18, "field_1": 17, "CLUES": "DFSSA003005", "INGRE": 7, "NombreClue": "36-U.M.R.P.V. Sur", "DomUnidad": "JAVIER PIÑA Y PALACIOS ESQUINA MARTÍNEZ DE CASTRO COLONIA SAN MATEO XALPA C.P. 16800", "EDO": "CIUDAD DE MÉXICO", "Full Address": "JAVIER PIÑA Y PALACIOS ESQUINA MARTÍNEZ DE CASTRO COLONIA SAN MATEO XALPA C.P. 16800 CIUDAD DE MÉXICO", "Latitude": 19.2346199, "Longitude": -99.127525 }, "geometry": { "type": "Point", "coordinates": [ -99.127525, 19.2346199 ] } },
{ "type": "Feature", "properties": { "fid": 19, "field_1": 18, "CLUES": "DFSSA003162", "INGRE": 574, "NombreClue": "04-H.G. Xoco", "DomUnidad": "AVENIDA MÉXICO COYOACÁN ESQUINA BRUNO TRAVEN COLONIA GENERAL ANAYA", "EDO": "CIUDAD DE MÉXICO", "Full Address": "AVENIDA MÉXICO COYOACÁN ESQUINA BRUNO TRAVEN COLONIA GENERAL ANAYA CIUDAD DE MÉXICO", "Latitude": 19.3591248, "Longitude": -99.1633869 }, "geometry": { "type": "Point", "coordinates": [ -99.1633869, 19.3591248 ] } },
{ "type": "Feature", "properties": { "fid": 20, "field_1": 19, "CLUES": "DFSSA003372", "INGRE": 2283, "NombreClue": "21-H.P. Peralvillo", "DomUnidad": "TOLNAHUAC 14 COLONIA SAN SIMÓN C.P.", "EDO": "CIUDAD DE MÉXICO", "Full Address": "TOLNAHUAC 14 COLONIA SAN SIMÓN C.P. CIUDAD DE MÉXICO", "Latitude": 19.457911, "Longitude": -99.1442316 }, "geometry": { "type": "Point", "coordinates": [ -99.1442316, 19.457911 ] } },
{ "type": "Feature", "properties": { "fid": 21, "field_1": 20, "CLUES": "DFSSA003384", "INGRE": 475, "NombreClue": "07-H.G. Dr. Gregorio Salas Flores", "DomUnidad": "CARMEN 42 COLONIA CENTRO", "EDO": "CIUDAD DE MÉXICO", "Full Address": "CARMEN 42 COLONIA CENTRO CIUDAD DE MÉXICO", "Latitude": 19.4377023, "Longitude": -99.1295748 }, "geometry": { "type": "Point", "coordinates": [ -99.1295748, 19.4377023 ] } },
{ "type": "Feature", "properties": { "fid": 22, "field_1": 21, "CLUES": "DFSSA003536", "INGRE": 3285, "NombreClue": "23-H.P. Tacubaya", "DomUnidad": "ARQ. CARLOS LAZO ESQUINA GAVIOTA 25 COLONIA TACUBAYA", "EDO": "CIUDAD DE MÉXICO", "Full Address": "ARQ. CARLOS LAZO ESQUINA GAVIOTA 25 COLONIA TACUBAYA CIUDAD DE MÉXICO", "Latitude": 19.4023265, "Longitude": -99.1912114 }, "geometry": { "type": "Point", "coordinates": [ -99.1912114, 19.4023265 ] } },
{ "type": "Feature", "properties": { "fid": 23, "field_1": 22, "CLUES": "DFSSA003541", "INGRE": 1337, "NombreClue": "17-H.P. Legaria", "DomUnidad": "CALZADA LEGARIA 371 COLONIA MÉXICO NUEVO", "EDO": "CIUDAD DE MÉXICO", "Full Address": "CALZADA LEGARIA 371 COLONIA MÉXICO NUEVO CIUDAD DE MÉXICO", "Latitude": 19.4507095, "Longitude": -99.203621 }, "geometry": { "type": "Point", "coordinates": [ -99.203621, 19.4507095 ] } },
{ "type": "Feature", "properties": { "fid": 24, "field_1": 23, "CLUES": "DFSSA003553", "INGRE": 1059, "NombreClue": "03-H.G. Dr. Rubén Leñero", "DomUnidad": "PLAN DE SAN LUIS Y DÍAZ MIRÓN COL. CASCO DE SANTO TOMÁS", "EDO": "CIUDAD DE MÉXICO", "Full Address": "PLAN DE SAN LUIS Y DÍAZ MIRÓN COL. CASCO DE SANTO TOMÁS CIUDAD DE MÉXICO", "Latitude": 19.451037, "Longitude": -99.168673 }, "geometry": { "type": "Point", "coordinates": [ -99.168673, 19.451037 ] } },
{ "type": "Feature", "properties": { "fid": 25, "field_1": 24, "CLUES": "DFSSA003664", "INGRE": 2, "NombreClue": "37-C.H.E.T. Venustiano Carranza", "DomUnidad": "ERNESTO P. URUCHURTU ESQUINA PROLONGACIÓN RÍO CHURUBUSCO COLONIA ADOLFO LÓPEZ MATEOS", "EDO": "CIUDAD DE MÉXICO", "Full Address": "ERNESTO P. URUCHURTU ESQUINA PROLONGACIÓN RÍO CHURUBUSCO COLONIA ADOLFO LÓPEZ MATEOS CIUDAD DE MÉXICO", "Latitude": 19.4215608, "Longitude": -99.069196 }, "geometry": { "type": "Point", "coordinates": [ -99.069196, 19.4215608 ] } },
{ "type": "Feature", "properties": { "fid": 26, "field_1": 25, "CLUES": "DFSSA003705", "INGRE": 2, "NombreClue": "24-H.M.I. Inguarán", "DomUnidad": "ESTAÑO ESQUINA CONGRESO DE LA UNIÓN 307 COLONIA FELIPE ÁNGELES C.P. (15310)", "EDO": "CIUDAD DE MÉXICO", "Full Address": "ESTAÑO ESQUINA CONGRESO DE LA UNIÓN 307 COLONIA FELIPE ÁNGELES C.P. (15310) CIUDAD DE MÉXICO", "Latitude": 19.4528777, "Longitude": -99.1150769 }, "geometry": { "type": "Point", "coordinates": [ -99.1150769, 19.4528777 ] } },
{ "type": "Feature", "properties": { "fid": 27, "field_1": 26, "CLUES": "DFSSA003710", "INGRE": 1090, "NombreClue": "20-H.P. Moctezuma", "DomUnidad": "ORIENTE 158 NÚMERO 189 COLONIA MOCTEZUMA SEGUNDA SECCIÓN", "EDO": "CIUDAD DE MÉXICO", "Full Address": "ORIENTE 158 NÚMERO 189 COLONIA MOCTEZUMA SEGUNDA SECCIÓN CIUDAD DE MÉXICO", "Latitude": 19.4328739, "Longitude": -99.0982688 }, "geometry": { "type": "Point", "coordinates": [ -99.0982688, 19.4328739 ] } },
{ "type": "Feature", "properties": { "fid": 28, "field_1": 27, "CLUES": "DFSSA003722", "INGRE": 1318, "NombreClue": "06-H.G. Balbuena", "DomUnidad": "CECILIO RÓBELO Y SUR 103 COLONIA AERONÁUTICA MILITAR", "EDO": "CIUDAD DE MÉXICO", "Full Address": "CECILIO RÓBELO Y SUR 103 COLONIA AERONÁUTICA MILITAR CIUDAD DE MÉXICO", "Latitude": 19.4250658, "Longitude": -99.1161265 }, "geometry": { "type": "Point", "coordinates": [ -99.1161265, 19.4250658 ] } },
{ "type": "Feature", "properties": { "fid": 29, "field_1": 28, "CLUES": "DFSSA004265", "INGRE": 1037, "NombreClue": "01-H.E.CDMX. Dr. Belisario Domínguez", "DomUnidad": "AVENIDA TLAHUAC ESQUINA ZACATLÁN 4866 COLONIA SAN LORENZO TEZONCO", "EDO": "CIUDAD DE MÉXICO", "Full Address": "AVENIDA TLAHUAC ESQUINA ZACATLÁN 4866 COLONIA SAN LORENZO TEZONCO CIUDAD DE MÉXICO", "Latitude": 19.3081906, "Longitude": -99.0663463 }, "geometry": { "type": "Point", "coordinates": [ -99.0663463, 19.3081906 ] } },
{ "type": "Feature", "properties": { "fid": 30, "field_1": 29, "CLUES": "DFSSA017886", "INGRE": 1252, "NombreClue": "02-H.G. Dr. Enrique Cabrera", "DomUnidad": "AVENIDA PROLONGACION 5 DE MAYO 3170 COLONIA EX-HACIENDA DE TARANGO", "EDO": "CIUDAD DE MÉXICO", "Full Address": "AVENIDA PROLONGACION 5 DE MAYO 3170 COLONIA EX-HACIENDA DE TARANGO CIUDAD DE MÉXICO", "Latitude": 19.3617484, "Longitude": -99.2246738 }, "geometry": { "type": "Point", "coordinates": [ -99.2246738, 19.3617484 ] } },
{ "type": "Feature", "properties": { "fid": 31, "field_1": 30, "CLUES": "DFSSA018142", "INGRE": 47, "NombreClue": "13-C.H. Emiliano Zapata", "DomUnidad": "CUCO SÁNCHEZ ESQUINA PEDRO INFANTE 71 COLONIA AMPLIACIÓN EMILIANO ZAPATA", "EDO": "CIUDAD DE MÉXICO", "Full Address": "CUCO SÁNCHEZ ESQUINA PEDRO INFANTE 71 COLONIA AMPLIACIÓN EMILIANO ZAPATA CIUDAD DE MÉXICO", "Latitude": 19.3390249, "Longitude": -98.9790474 }, "geometry": { "type": "Point", "coordinates": [ -98.9790474, 19.3390249 ] } },
{ "type": "Feature", "properties": { "fid": 32, "field_1": 31, "CLUES": "DFSSA018154", "INGRE": 2081, "NombreClue": "11-H.G. Tláhuac", "DomUnidad": "AVENIDA LA TURBA ESQUINA CON GABRIELA MISTRAL 655 COLONIA VILLA CENTROAMERICANA Y DEL CARIBE", "EDO": "CIUDAD DE MÉXICO", "Full Address": "AVENIDA LA TURBA ESQUINA CON GABRIELA MISTRAL 655 COLONIA VILLA CENTROAMERICANA Y DEL CARIBE CIUDAD DE MÉXICO", "Latitude": 19.2876688, "Longitude": -99.0513859 }, "geometry": { "type": "Point", "coordinates": [ -99.0513859, 19.2876688 ] } },
{ "type": "Feature", "properties": { "fid": 33, "field_1": 32, "CLUES": "DFSSA018166", "INGRE": 685, "NombreClue": "12-H.G. Ajusco Medio", "DomUnidad": "ENCINOS ENTRE HORTENCIA Y PIÑANONA 42 COLONIA AMPLIACIÓN MIGUEL HIDALGO CUARTA SECCIÓN", "EDO": "CIUDAD DE MÉXICO", "Full Address": "ENCINOS ENTRE HORTENCIA Y PIÑANONA 42 COLONIA AMPLIACIÓN MIGUEL HIDALGO CUARTA SECCIÓN CIUDAD DE MÉXICO", "Latitude": 19.2727418, "Longitude": -99.2102428 }, "geometry": { "type": "Point", "coordinates": [ -99.2102428, 19.2727418 ] } }
]
}
